,City,Lat,Lng,Max Temp,Humidity,Cloudiness,Wind Speed,Country,Date
0,praia da vitoria,38.7333,-27.0667,62.01,94,40,12.73,PT,1615084287
1,samusu,-33.65,115.3333,73,76,13,1.99,AU,1615084248
2,albany,42.6001,-73.9662,23,55,3,1.01,US,1615084201
3,avarua,-21.2078,-159.775,78.8,94,75,14.97,CK,1615084339
4,hami,42.8,93.45,43.74,53,0,5.91,CN,1615084339
5,mataura,-46.1927,168.8643,53.01,76,56,18.99,NZ,1615084339
6,barbar,-33.65,115.3333,73,76,13,1.99,AU,1615084248
7,ust-nera,64.5667,143.2,-20.92,76,100,7.02,RU,1615084339
8,ushuaia,-54.8,-68.3,50,40,20,11.5,AR,1615084182
9,tiksi,71.6872,128.8694,-16.91,87,100,7.92,RU,1615084340
10,belushya guba,-33.65,115.3333,73,76,13,1.99,AU,1615084248
11,ginir,7.1333,40.7,55.54,41,97,4.74,ET,1615084340
12,bredasdorp,-34.5322,20.0403,60.8,82,3,8.05,ZA,1615084340
13,roscommon,53.6333,-8.1833,34.56,89,57,5.03,IE,1615084341
14,karasuk,53.7377,78.0403,10.78,93,100,5.08,RU,1615084341
15,sharjah,25.3573,55.4033,69.8,77,40,8.05,AE,1615084341
16,arraial do cabo,-22.9661,-42.0278,74.17,94,100,10.27,BR,1615084071
17,lebu,-37.6167,-73.65,57.52,94,19,4.43,CL,1615084341
18,punta arenas,-53.15,-70.9167,48.2,61,20,27.63,CL,1615084342
19,bouafle,6.9904,-5.7442,78.8,83,40,9.22,CI,1615084342
20,hobart,-42.8794,147.3294,71.01,52,75,11.5,AU,1615084323
21,cayenne,4.9333,-52.3333,80.01,94,90,4.61,GF,1615084342
22,abatskoye,56.2875,70.4555,3.22,94,62,8.08,RU,1615084342
23,touros,-5.1989,-35.4608,77,88,40,3.44,BR,1615084342
24,cabo san lucas,22.8909,-109.9124,68,73,20,2.3,MX,1615084082
25,vaini,-21.2,-175.2,86,74,75,13.8,TO,1615084343
26,kiunga,-6.1219,141.2906,86.59,63,81,3.36,PG,1615084343
27,saldanha,-33.0117,17.9442,57.2,82,17,3.44,ZA,1615084343
28,dunda,-8.1167,34.25,64.8,93,100,2.84,TZ,1615084343
29,thinadhoo,0.5333,72.9333,82.56,79,9,13.29,MV,1615084343
30,ramnagar,29.4,79.1167,74.71,20,39,3.4,IN,1615084343
31,rive-de-gier,45.5307,4.6213,41,93,60,5.75,FR,1615084343
32,narsaq,60.9167,-46.05,42.8,31,75,26.46,GL,1615084344
33,kruisfontein,-34.0033,24.7314,66.99,75,2,1.99,ZA,1615084344
34,macusani,-14.0833,-70.4333,34.38,90,100,3.13,PE,1615084344
35,soyo,-6.1349,12.3689,75.85,85,100,4.36,AO,1615084268
36,grand river south east,-33.65,115.3333,73,76,13,1.99,AU,1615084248
37,balkanabat,39.5108,54.3671,45.5,67,0,8.75,TM,1615084344
38,attingal,8.6833,76.8333,82.4,74,20,3.44,IN,1615084344
39,algeciras,36.1333,-5.4505,59,88,90,18.41,ES,1615084344
40,longyearbyen,78.2186,15.6401,1.4,71,40,14.97,SJ,1615084245
41,lang son,21.8333,106.7333,67.98,62,89,7.23,VN,1615084215
42,almeirim,-1.5233,-52.5817,74.89,92,100,2.44,BR,1615084345
43,tadine,-21.55,167.8833,78.58,68,6,14.09,NC,1615084345
44,meulaboh,4.1363,96.1285,81.84,73,100,3.02,ID,1615084345
45,rikitea,-23.1203,-134.9692,79.99,80,82,13.27,PF,1615084345
46,dicabisagan,17.0818,122.4157,80.47,64,64,6.33,PH,1615084345
47,chuy,-33.6971,-53.4616,65.05,83,21,2.8,UY,1615084346
48,kapaa,22.0752,-159.319,71.6,78,90,18.41,US,1615084346
49,roma,43.2128,-75.4557,21,93,90,1.52,US,1615084346
50,samalaeulu,-33.65,115.3333,73,76,13,1.99,AU,1615084248
51,provideniya,64.3833,-173.3,4.19,91,100,5.59,RU,1615084346
52,thompson,55.7435,-97.8558,41,52,75,10.36,CA,1615084347
53,cherskiy,68.75,161.3,-9.87,88,100,8.68,RU,1615084347
54,busselton,-33.65,115.3333,73,76,13,1.99,AU,1615084248
55,codrington,-38.2667,141.9667,72.37,42,100,6.93,AU,1615084347
56,new norfolk,-42.7826,147.0587,71.01,49,100,1.01,AU,1615084347
57,roald,62.5833,6.1333,33.01,93,90,14.97,NO,1615084347
58,barrow,71.2906,-156.7887,-7.6,71,1,9.22,US,1615084348
59,saint anthony,45.0205,-93.218,39.2,44,1,3.44,US,1615084250
60,labuhan,-6.8844,112.2051,79.66,79,95,6.42,ID,1615084348
61,kryry,50.1744,13.4266,30.99,79,0,2.3,CZ,1615084348
62,the valley,18.217,-63.0578,77,78,20,12.66,AI,1615084349
63,atuona,-9.8,-139.0333,79.54,74,17,13.85,PF,1615084349
64,bluff,-46.6,168.3333,53.01,76,72,18.99,NZ,1615084271
65,attawapiskat,-33.65,115.3333,73,76,13,1.99,AU,1615084248
66,faanui,-16.4833,-151.75,83.46,68,36,11.72,PF,1615084349
67,tasiilaq,65.6145,-37.6368,26.6,86,90,19.57,GL,1615084350
68,tuktoyaktuk,69.4541,-133.0374,-9.4,77,90,12.66,CA,1615084350
69,cape town,-33.9258,18.4232,66,88,75,3.44,ZA,1615084350
70,vestmannaeyjar,63.4427,-20.2734,39.85,74,75,10.04,IS,1615084350
71,manokwari,-0.8667,134.0833,79.84,76,100,2.82,ID,1615084350
72,alyangula,-13.8483,136.4192,89.6,58,40,10.36,AU,1615084323
73,aksarka,66.5606,67.7975,-12.3,89,87,7.78,RU,1615084351
74,ancud,-41.8697,-73.8203,59,100,90,2.3,CL,1615084351
75,tuatapere,-46.1333,167.6833,53.01,76,68,18.99,NZ,1615084351
76,olafsvik,64.8945,-23.7142,40.57,86,69,7.14,IS,1615084351
77,vostok,46.4856,135.8833,11.17,92,84,6.24,RU,1615084351
78,umzimvubu,-33.65,115.3333,73,76,13,1.99,AU,1615084248
79,tura,25.5198,90.2201,77.25,54,0,4.29,IN,1615084352
80,balvi,57.1313,27.2658,27.57,93,100,16.58,LV,1615084352
81,ponta do sol,32.6667,-17.1,57,62,14,3,PT,1615084352
82,yellowknife,62.456,-114.3525,15.01,85,90,10.36,CA,1615084201
83,livingstonia,-10.606,34.1063,64.27,93,100,3.71,MW,1615084352
84,chumikan,54.7183,135.315,2.41,85,0,25.52,RU,1615084352
85,kaitangata,-46.2817,169.8464,57,53,51,11.01,NZ,1615084353
86,hithadhoo,-0.6,73.0833,82.63,76,12,7.34,MV,1615084353
87,bonavista,48.6499,-53.1147,30.99,86,85,2.3,CA,1615084353
88,hermanus,-34.4187,19.2345,63,84,4,1.99,ZA,1615084353
89,mahebourg,-20.4081,57.7,78.8,89,75,13.8,MU,1615084353
90,nikolskoye,59.7035,30.7861,27,86,90,26.84,RU,1615084353
91,charleston,32.7766,-79.9309,46.99,65,40,3.44,US,1615084161
92,grand gaube,-20.0064,57.6608,82,80,100,8.01,MU,1615084353
93,souillac,-20.5167,57.5167,78.8,89,75,13.8,MU,1615084268
94,illoqqortoormiut,-33.65,115.3333,73,76,13,1.99,AU,1615084248
95,hofn,64.2539,-15.2082,38.39,72,86,4.59,IS,1615084339
96,katsuura,35.1333,140.3,48.99,52,89,5.99,JP,1615084354
97,ambunti,-4.2365,142.8448,87.85,59,85,4.25,PG,1615084354
98,vila franca do campo,37.7167,-25.4333,59,100,75,13.8,PT,1615084354
99,sabha,27.0377,14.4283,60.39,29,0,9.82,LY,1615084354
100,cidreira,-30.1811,-50.2056,68.92,67,0,1.68,BR,1615084333
101,encruzilhada,-15.5314,-40.9094,67.69,79,3,2.82,BR,1615084354
102,nanortalik,60.1432,-45.2371,33.22,92,100,7,GL,1615084354
103,awbari,26.5921,12.7805,58.17,32,0,5.46,LY,1615084354
104,jamestown,42.097,-79.2353,23,95,90,6.91,US,1615084244
105,camacha,33.0833,-16.3333,59,67,75,14.97,PT,1615084355
106,taolanaro,-33.65,115.3333,73,76,13,1.99,AU,1615084248
107,castro,-24.7911,-50.0119,61.07,94,12,1.79,BR,1615084274
108,kodiak,57.79,-152.4072,32,34,1,29.93,US,1615084290
109,port blair,11.6667,92.75,82.4,78,20,5.75,IN,1615084355
110,amderma,-33.65,115.3333,73,76,13,1.99,AU,1615084248
111,katobu,-4.9408,122.5276,87.93,62,2,2.77,ID,1615084356
112,sinnamary,5.3833,-52.95,78.49,88,100,13.87,GF,1615084356
113,dum duma,27.5667,95.5667,60.8,88,75,4.61,IN,1615084356
114,tazovskiy,67.4667,78.7,-15.81,89,95,6.89,RU,1615084356
115,torbay,47.6666,-52.7314,30.99,86,90,14.97,CA,1615084356
116,palora,-1.7,-77.9333,65.68,95,96,1.34,EC,1615084357
117,kholodnyy,62.7167,147.95,-15.97,77,86,3.8,RU,1615084357
118,lazaro cardenas,17.9583,-102.2,73.08,82,0,2.24,MX,1615084357
119,kahului,20.8947,-156.47,78.8,50,40,18.41,US,1615084325
120,victoria,22.2855,114.1577,70,93,94,3,HK,1615084094
121,nizhneyansk,-33.65,115.3333,73,76,13,1.99,AU,1615084248
122,pervomayskoye,43.919,46.7102,41.09,76,100,23.2,RU,1615084357
123,fairbanks,64.8378,-147.7164,9,72,75,2.55,US,1615084244
124,georgetown,5.4112,100.3354,84.2,83,20,4.61,MY,1615084329
125,goderich,43.7501,-81.7165,24.8,63,30,4.61,CA,1615084208
126,rocha,-34.4833,-54.3333,61.41,91,4,0.98,UY,1615084167
127,butaritari,3.0707,172.7902,80.37,80,17,12.8,KI,1615084358
128,sechura,-5.5569,-80.8222,78.87,65,77,10.38,PE,1615084358
129,pisco,-13.7,-76.2167,73.4,83,0,17.27,PE,1615084276
130,razole,16.4833,81.8333,77,78,3,1.43,IN,1615084358
131,rocky mountain house,52.3668,-114.9188,33.8,80,78,1.14,CA,1615084165
132,honiara,-9.4333,159.95,82.4,76,100,4.21,SB,1615084358
133,komsomolskiy,40.4272,71.7189,41,65,100,2.3,UZ,1615084359
134,qaanaaq,77.484,-69.3632,-15.74,67,0,6.93,GL,1615084359
135,san felipe,10.3399,-68.7425,71.87,91,100,3.38,VE,1615084359
136,road town,18.4167,-64.6167,78.01,78,20,6.91,VG,1615084123
137,carnarvon,-24.8667,113.6333,84.2,70,0,12.66,AU,1615084251
138,kungurtug,50.5994,97.5228,21.11,85,0,1.48,RU,1615084359
139,acari,-15.4311,-74.6158,75.63,68,59,2.95,PE,1615084360
140,sitka,57.0531,-135.33,42.8,56,90,5.75,US,1615084360
141,teya,60.3778,92.6267,24.44,94,100,9.8,RU,1615084360
142,havelock,34.8791,-76.9013,39.99,75,1,5.75,US,1615084361
143,hovd,48.0056,91.6419,28.11,51,0,3.51,MN,1615084361
144,pevek,69.7008,170.3133,-21.89,83,61,11.86,RU,1615084248
145,bundaberg,-24.85,152.35,82.4,57,75,12.66,AU,1615084361
146,mar del plata,-38.0023,-57.5575,64.99,82,0,4.61,AR,1615084319
147,kangaatsiaq,68.3065,-53.4641,11.43,95,100,10.65,GL,1615084361
148,makakilo city,21.3469,-158.0858,78.8,53,20,10.36,US,1615084361
149,talnakh,69.4865,88.3972,-2,91,100,1.83,RU,1615084362
150,saint-philippe,-21.3585,55.7679,78.8,78,75,11.5,RE,1615084362
151,zhigansk,66.7697,123.3711,-12.75,89,100,12.68,RU,1615084362
152,pacocha,-17.5833,-71.3333,71.82,82,98,4.03,PE,1615084362
153,jardim,-21.4803,-56.1381,69.49,88,1,1.36,BR,1615084363
154,kavieng,-2.5744,150.7967,83.64,72,89,5.7,PG,1615084363
155,kushmurun,52.4503,64.6311,19.87,97,100,9.33,KZ,1615084363
156,zyryanka,65.75,150.85,-6.2,88,100,19.26,RU,1615084363
157,lugovskiy,-33.65,115.3333,73,76,13,1.99,AU,1615084248
158,calvinia,-31.4707,19.776,53.65,63,0,3.42,ZA,1615084363
159,tumannyy,-33.65,115.3333,73,76,13,1.99,AU,1615084248
160,airai,-8.9266,125.4092,74.97,70,34,2.26,TL,1615084364
161,havre-saint-pierre,50.2334,-63.5986,26.6,86,90,11.5,CA,1615084364
162,jalu,29.0331,21.5482,58.44,30,0,4.54,LY,1615084364
163,estepona,36.4276,-5.1459,59,88,90,18.41,ES,1615084365
164,noboribetsu,42.4514,141.1731,28.4,64,20,12.66,JP,1615084365
165,hilo,19.7297,-155.09,75.2,69,90,3.44,US,1615084275
166,shingu,33.7333,135.9833,53.6,58,75,8.05,JP,1615084365
167,joshimath,30.5667,79.5667,51.42,46,97,1.21,IN,1615084365
168,isangel,-19.55,169.2667,81.34,69,54,8.05,VU,1615084285
169,college,64.8569,-147.8028,9,72,75,2.28,US,1615084365
170,bridlington,54.0831,-0.1919,35.01,75,0,1.99,GB,1615084366
171,wattegama,6.7989,81.4808,77,100,0,3.44,LK,1615084366
172,elesbao veloso,-6.2019,-42.1403,72.88,92,89,1.03,BR,1615084366
173,upernavik,72.7868,-56.1549,-10.71,88,100,9.48,GL,1615084270
174,husavik,66.0449,-17.3389,33.8,75,0,4.61,IS,1615084366
175,hasaki,35.7333,140.8333,48.99,61,75,14.97,JP,1615084366
176,smithers,54.7804,-127.1743,37.4,56,90,9.22,CA,1615084366
177,riviere-au-renard,48.9957,-64.3971,19.4,73,90,11.5,CA,1615084366
178,tecoanapa,16.5167,-98.75,74.73,80,0,5.06,MX,1615084367
179,chokurdakh,70.6333,147.9167,-12.48,88,100,16.06,RU,1615084367
180,yuzhno-kurilsk,44.0306,145.8556,23.76,85,100,6.89,RU,1615084368
181,pontianak,-0.0333,109.3333,80.6,83,40,3.44,ID,1615084368
182,taltal,-25.4,-70.4833,67.01,79,19,1.45,CL,1615084368
183,grimari,-33.65,115.3333,73,76,13,1.99,AU,1615084248
184,vengerovo,55.6848,76.7471,4.59,94,9,10.27,RU,1615084368
185,kazalinsk,-33.65,115.3333,73,76,13,1.99,AU,1615084248
186,kamenka,51.3223,42.7678,7.39,95,0,7.23,RU,1615084368
187,arman,59.7,150.1667,0.21,79,98,5.21,RU,1615084369
188,tsihombe,-33.65,115.3333,73,76,13,1.99,AU,1615084248
189,severo-kurilsk,50.6789,156.125,15.39,88,100,34.09,RU,1615084369
190,jieshi,22.8134,115.8257,68,85,84,1.01,CN,1615084369
191,laguna,38.421,-121.4238,60.8,44,1,4.61,US,1615084370
192,rosetta,31.4044,30.4164,53.6,87,0,3.44,EG,1615084370
193,yibin,28.7667,104.6238,59.65,64,100,0.87,CN,1615084249
194,port alfred,-33.5906,26.891,68,89,72,5.99,ZA,1615084370
195,hervey bay,-25.2986,152.8535,82.4,57,75,12.66,AU,1615084370
196,garowe,8.4054,48.4845,57.47,87,22,3.13,SO,1615084370
197,iracoubo,5.4802,-53.2011,78.21,88,100,13.6,GF,1615084371
198,abha,18.2164,42.5053,55.4,43,0,3.06,SA,1615084371
199,bondoukou,8.0333,-2.8,74.35,89,89,9.19,CI,1615084371
200,indramayu,-6.3264,108.32,80.53,74,74,3.76,ID,1615084371
201,shilka,51.85,116.0333,15.57,89,0,3.42,RU,1615084371
202,henties bay,-22.116,14.2845,64,87,82,4,NA,1615084360
203,pastavy,55.1168,26.8326,32.54,97,100,22.37,BY,1615084371
204,hastings,50.8552,0.5729,33.01,74,0,3,GB,1615084371
205,koygorodok,60.445,50.9968,-7.8,91,93,3.67,RU,1615084371
206,turukhansk,65.8167,87.9833,13.48,96,100,7.14,RU,1615084288
207,eenhana,-17.4667,16.3333,68.99,56,65,4.72,NA,1615084372
208,ruatoria,-33.65,115.3333,73,76,13,1.99,AU,1615084248
209,kiruna,67.8557,20.2251,21.2,68,90,20.71,SE,1615084372
210,ahome,25.9167,-109.1833,66.2,45,1,9.22,MX,1615084372
211,shimoda,34.6667,138.95,48.2,66,75,16.11,JP,1615084372
212,san quintin,30.4833,-115.95,58.06,81,0,17.74,MX,1615084372
213,manono,-7.3,27.4167,70.48,94,100,1.9,CD,1615084373
214,umm jarr,-33.65,115.3333,73,76,13,1.99,AU,1615084248
215,kailua,21.4022,-157.7394,77,73,90,12.66,US,1615084373
216,iqaluit,63.7506,-68.5145,-4,77,90,23.02,CA,1615084373
217,yatou,37.15,122.3833,41.2,60,100,6.85,CN,1615084325
218,simi,9.5667,-12.35,75.52,83,37,2.3,SL,1615084374
219,mgandu,-5.95,34.1333,61.45,94,100,2.1,TZ,1615084375
220,udachnyy,66.4167,112.4,4.33,91,96,6.6,RU,1615084375
221,suntar,62.1444,117.6319,15.85,96,96,4.65,RU,1615084375
222,bethel,41.3712,-73.414,24.01,58,3,5.39,US,1615084376
223,kant,27.8,79.8,71.67,22,30,4.21,IN,1615084376
224,namatanai,-3.6667,152.4333,83.89,70,99,6.91,PG,1615084376
225,zhuhai,22.2769,113.5678,69.8,100,75,9.22,CN,1615084377
226,richards bay,-28.783,32.0377,69.57,84,68,5.86,ZA,1615084377
227,stokmarknes,68.5646,14.9108,28,88,71,1.99,NO,1615084377
228,sawtell,-30.3833,153.1,77,69,40,10.36,AU,1615084377
229,aksu,41.1231,80.2644,44.85,55,100,3.13,CN,1615084378
230,aku,6.7081,7.3167,82.4,78,20,5.75,NG,1615084378
231,abu kamal,34.4506,40.9171,53.71,42,0,5.08,SY,1615084378
232,barcelos,41.5388,-8.6151,51.01,93,0,5.75,PT,1615084379
233,oistins,13.0667,-59.5333,78.8,69,20,21.85,BB,1615084379
234,fortuna,40.5982,-124.1573,48.99,66,1,4.61,US,1615084379
235,aklavik,68.2191,-135.0107,-2.2,84,100,9.22,CA,1615084379
236,deputatskiy,69.3,139.9,-19.03,85,100,12.55,RU,1615084380
237,port elizabeth,-33.918,25.5701,68,83,0,17.27,ZA,1615084380
238,panzhihua,26.5851,101.7128,55.99,51,28,1.07,CN,1615084380
239,mount isa,-20.7333,139.5,95,20,0,4.61,AU,1615084380
240,vaitupu,-33.65,115.3333,73,76,13,1.99,AU,1615084248
241,hunza,-33.65,115.3333,73,76,13,1.99,AU,1615084248
242,pochutla,15.7432,-96.4661,72.52,83,2,3.56,MX,1615084381
243,itarema,-2.9248,-39.9167,78.89,81,55,10.45,BR,1615084381
244,aguai,-22.0594,-46.9786,71.6,94,75,5.75,BR,1615084381
245,flinders,-34.5833,150.8552,78.01,61,36,5.99,AU,1615084381
246,formosa,-26.1775,-58.1781,75.2,78,0,4.61,AR,1615084381
247,yar-sale,66.8333,70.8333,-10.86,90,94,8.68,RU,1615084247
248,monywa,22.1167,95.1333,79.66,30,32,10.31,MM,1615084382
249,lovozero,68.005,35.0117,2.97,93,100,7.87,RU,1615084382
250,barentsburg,-33.65,115.3333,73,76,13,1.99,AU,1615084248
251,sao filipe,14.8961,-24.4956,70.09,80,41,13.06,CV,1615084327
252,rauseni,47.5667,27.2,27,74,0,3.44,RO,1615084382
253,longlac,-33.65,115.3333,73,76,13,1.99,AU,1615084248
254,el balyana,-33.65,115.3333,73,76,13,1.99,AU,1615084248
255,qingdao,36.0986,120.3719,41,52,0,6.71,CN,1615084104
256,morant bay,17.8815,-76.4093,78.8,73,20,5.75,JM,1615084383
257,tual,-5.6667,132.75,82.56,75,85,14.07,ID,1615084383
258,saint george,37.1041,-113.5841,69.8,12,1,4.61,US,1615084208
259,lansdale,40.2415,-75.2838,33.01,55,90,3.44,US,1615084383
260,gamboma,-1.8764,15.8644,72.61,84,100,7.14,CG,1615084383
261,mikkeli,61.6886,27.2723,19.4,68,90,13.8,FI,1615084164
262,puerto ayora,-0.7393,-90.3518,77,95,55,1.01,EC,1615084384
263,qixingtai,30.4135,111.8874,43,77,67,7.14,CN,1615084384
264,bambous virieux,-20.3428,57.7575,82,89,75,13.8,MU,1615084272
265,tessalit,20.1986,1.0114,72.43,24,17,5.53,ML,1615084384
266,norman wells,65.282,-126.8329,5,72,75,18.41,CA,1615084384
267,seoul,37.5683,126.9778,46.4,49,75,2.3,KR,1615083834
268,olga,43.7444,135.2892,28.08,65,49,2.95,RU,1615084385
269,kamenskoye,-33.65,115.3333,73,76,13,1.99,AU,1615084248
270,inhambane,-23.865,35.3833,71.92,89,26,7,MZ,1615084385
271,esperance,-33.8667,121.9,68,88,90,6.91,AU,1615084385
272,huarmey,-10.0681,-78.1522,73.47,74,100,9.51,PE,1615084283
273,nguiu,-33.65,115.3333,73,76,13,1.99,AU,1615084248
274,pemangkat,1.1667,108.9667,81.9,77,97,9.42,ID,1615084386
275,sisophon,13.5859,102.9737,91.27,47,0,5.19,KH,1615084386
276,khandyga,62.6667,135.6,-20.18,83,51,2.39,RU,1615084386
277,pilar,-9.5972,-35.9567,75.2,94,0,3.44,BR,1615084386
278,rawson,-43.3002,-65.1023,76.53,36,82,12.21,AR,1615084366
279,huanren,41.2647,125.3667,35.08,68,0,2.01,CN,1615084387
280,klaksvik,62.2266,-6.589,39.2,100,75,8.05,FO,1615084387
281,ucluelet,48.9329,-125.5528,46,87,90,13.8,CA,1615084345
282,vao,-22.6667,167.4833,75.85,69,4,13.8,NC,1615084358
283,guerrero negro,27.9769,-114.0611,58.84,78,0,17.96,MX,1615084309
284,ipixuna,-1.7625,-48.8043,75.2,94,0,2.3,BR,1615084387
285,chapais,49.7834,-74.8492,1.4,78,90,12.66,CA,1615084387
286,tolbazy,54.0241,55.8825,8.6,92,90,4.47,RU,1615084387
287,penzance,50.1186,-5.5371,35.01,80,26,8.05,GB,1615084387
288,alofi,-19.0595,-169.9187,82.4,83,100,6.91,NU,1615084387
289,uusikaupunki,60.8004,21.4084,26.6,50,20,12.66,FI,1615084388
290,mys shmidta,-33.65,115.3333,73,76,13,1.99,AU,1615084248
291,chortomlyk,47.6232,34.142,27.23,93,0,10.27,UA,1615084388
292,datong,40.0936,113.2914,37.06,71,0,3.71,CN,1615084388
293,sibu,2.3,111.8167,78.8,94,40,3.44,MY,1615084388
294,skaerbaek,55.1573,8.769,37.99,80,75,14.97,DK,1615084389
295,mitsamiouli,-11.3847,43.2844,81.54,78,100,10,KM,1615084389
296,kutum,14.2,24.6667,56.46,30,47,6.53,SD,1615084389
297,shenjiamen,29.9576,122.298,51.64,91,100,7.61,CN,1615084390
298,ginda,30.6945,78.4932,64.4,63,75,3.44,IN,1615084390
299,obo,5.3998,26.4869,69.58,25,10,4.41,CF,1615084390
300,dunedin,-45.8742,170.5036,54,68,73,20,NZ,1615084312
301,ribeira grande,38.5167,-28.7,61.61,96,74,9.57,PT,1615084256
302,lorengau,-2.0226,147.2712,84.2,71,5,6.22,PG,1615084390
303,san patricio,28.017,-97.5169,59,67,1,5.75,US,1615084277
304,clyde river,70.4692,-68.5914,-16.6,69,1,9.22,CA,1615084313
305,rabo de peixe,37.8,-25.5833,59,100,75,13.8,PT,1615084390
306,palmer,42.1584,-72.3287,24.01,50,75,9.22,US,1615084391
307,bodinayakkanur,10.0167,77.35,80.13,50,0,3.04,IN,1615084391
308,ilembula,-8.9,34.5833,62.65,95,100,0.49,TZ,1615084391
309,scarborough,54.2797,-0.4044,35.01,72,0,1.01,GB,1615084369
310,bandipur,27.9333,84.4167,68.65,24,0,1.9,NP,1615084391
311,fort nelson,58.8053,-122.7002,30.2,64,75,4.61,CA,1615084207
312,amapa,1,-52,71.06,98,100,1.68,BR,1615084391
313,isla mujeres,21.2311,-86.731,75.99,83,75,6.91,MX,1615084391
314,boffa,10.1667,-14.0333,71.42,83,79,2.64,GN,1615084391
315,qasigiannguit,68.8193,-51.1922,21.2,86,90,4.61,GL,1615084391
316,shache,38.4167,77.2406,45.55,51,100,7.2,CN,1615084392
317,teguise,29.0605,-13.564,62.6,77,7,10.36,ES,1615084392
318,gondar,12.6,37.4667,58.06,46,37,5.53,ET,1615084392
319,kidal,18.4411,1.4078,76.3,18,0,9.44,ML,1615084392
320,ondorhaan,-33.65,115.3333,73,76,13,1.99,AU,1615084248
321,tabiauea,-33.65,115.3333,73,76,13,1.99,AU,1615084248
322,karaul,-33.65,115.3333,73,76,13,1.99,AU,1615084248
323,tasbuget,-33.65,115.3333,73,76,13,1.99,AU,1615084248
324,ejura,7.3856,-1.3562,77.94,78,89,8.55,GH,1615084393
325,sozopolis,-33.65,115.3333,73,76,13,1.99,AU,1615084248
326,podgorica,42.4411,19.2636,41,45,0,6.91,ME,1615084231
327,pangnirtung,66.1451,-65.7125,-2.45,84,97,2.51,CA,1615084393
328,luena,-11.7833,19.9167,63.77,73,100,4.83,AO,1615084393
329,ambovombe,-25.1667,46.0833,72.16,88,32,7.45,MG,1615084393
330,vardo,70.3705,31.1107,26.47,95,97,26.08,NO,1615084364
331,simao,22.7886,100.9748,76.37,20,0,3.94,CN,1615084394
332,panaba,21.2833,-88.2667,70,86,62,7.05,MX,1615084394
333,adrar,20.5022,-10.0711,65.91,29,98,17.63,MR,1615084394
334,kuche,-33.65,115.3333,73,76,13,1.99,AU,1615084248
335,yulara,-25.2406,130.9889,93.2,27,49,4.61,AU,1615084394
336,lagoa,39.05,-27.9833,60.24,97,22,16.87,PT,1615084394
337,fonte boa,-2.4959,-66.2662,74.95,96,94,2.06,BR,1615084394
338,padang,-0.9492,100.3543,73.4,94,40,2.3,ID,1615084394
339,scottsburgh,-33.65,115.3333,73,76,13,1.99,AU,1615084248
340,hollins,37.3413,-79.9431,41,26,1,9.22,US,1615084394
341,pinotepa nacional,16.3167,-98.0167,70.92,81,0,2.57,MX,1615084394
342,sioux lookout,50.1001,-91.917,26.6,31,40,4.61,CA,1615084395
343,saint-pierre,-21.3393,55.4781,78.8,78,75,11.5,RE,1615084395
344,lander,42.833,-108.7307,51.8,28,1,5.75,US,1615084395
345,geraldton,-28.7667,114.6,87.8,40,0,11.5,AU,1615084257
346,big spring,32.2504,-101.4787,54,50,1,9.22,US,1615084396
347,itacare,-14.2775,-38.9967,82.4,78,40,8.05,BR,1615084396
348,taksimo,56.3444,114.8794,2.34,87,64,3.33,RU,1615084391
349,taoudenni,22.6783,-3.9836,67.96,32,0,9.08,ML,1615084396
350,matamoros,25.5333,-103.25,71.6,23,20,11.83,MX,1615084396
351,srednekolymsk,67.45,153.6833,-9.36,86,100,18.01,RU,1615084396
352,hihifo,-33.65,115.3333,73,76,13,1.99,AU,1615084248
353,belaya gora,68.5333,146.4167,-13.54,87,100,17.81,RU,1615084397
354,eston,51.1501,-108.7514,35.6,86,75,16.11,CA,1615084397
355,dzhusaly,-33.65,115.3333,73,76,13,1.99,AU,1615084248
356,banda aceh,5.5577,95.3222,84,67,74,5.91,ID,1615084397
357,baoqing,46.3317,132.2111,19.89,86,0,6.98,CN,1615084397
358,bandarbeyla,9.4942,50.8122,73.47,81,38,8.55,SO,1615084397
359,mazagao,-0.115,-51.2894,77,100,75,2.3,BR,1615084398
360,bouillante,16.1304,-61.7692,75.2,83,0,6.91,GP,1615084398
361,haifa,32.8156,34.9892,56.32,75,0,9.42,IL,1615084398
362,kattivakkam,13.2167,80.3167,77,88,20,4.61,IN,1615084398
363,portobelo,9.55,-79.65,80.01,69,62,1.99,PA,1615084398
364,manjacaze,-24.7117,33.8828,68.4,95,1,1.12,MZ,1615084399
365,ozgon,-33.65,115.3333,73,76,13,1.99,AU,1615084248
366,shaunavon,49.6501,-108.4181,35.6,75,100,10.36,CA,1615084399
367,sambava,-14.2667,50.1667,74.91,72,51,4.65,MG,1615084399
368,mayo,38.8876,-76.5119,39.2,48,1,6.91,US,1615084345
369,borskoye,53.0333,51.7167,2.41,89,25,3.24,RU,1615084399
370,bloomington,44.8408,-93.2983,37.4,52,20,6.91,US,1615084255
371,katherine,-14.4667,132.2667,89.6,66,40,8.05,AU,1615084400
372,port hardy,50.6996,-127.4199,44.6,75,90,10.36,CA,1615084208
373,mount gambier,-37.8333,140.7667,69.8,49,40,3.44,AU,1615084280
374,coahuayana,18.7333,-103.6833,70.21,87,0,1.88,MX,1615084401
375,poum,-20.2333,164.0167,79.41,67,9,11.21,NC,1615084401
376,leningradskiy,69.3833,178.4167,-16.55,77,14,4.36,RU,1615084311
377,bolama,11.5833,-15.4667,74.05,68,14,7.76,GW,1615084401
378,omsukchan,62.5333,155.8,-15.3,79,100,8.23,RU,1615084401
379,longyan,25.1072,117.0225,65.59,73,78,2.17,CN,1615084401
380,shihezi,44.3,86.0333,27,97,99,1.68,CN,1615084402
381,lufilufi,-13.8745,-171.5986,84.2,84,75,4.81,WS,1615084402
382,shellbrook,53.2168,-106.4011,32,93,90,2.3,CA,1615084402
383,murbad,19.25,73.4,77,78,0,3.44,IN,1615084402
384,bayan,46.0833,127.4,25,36,0,14.38,CN,1615084402
385,luderitz,-26.6481,15.1594,67.64,55,0,12.82,NA,1615084295
386,belmonte,-15.8631,-38.8828,77,88,20,6.91,BR,1615084316
387,russell,32.3502,-85.1999,53.6,47,90,3.44,US,1615084403
388,aranda de duero,41.6704,-3.6892,42.67,85,65,6.49,ES,1615084403
389,vila velha,-20.3297,-40.2925,79,89,0,4.61,BR,1615084281
390,mahibadhoo,3.7833,72.9667,82.29,71,11,10.85,MV,1615084403
391,cody,44.5263,-109.0565,44.6,53,1,9.22,US,1615084403
392,winneba,5.3511,-0.6231,82.4,89,0,9.22,GH,1615084404
393,uvalde,29.3669,-99.767,60.01,58,1,5.75,US,1615084183
394,abu dhabi,24.4667,54.3667,68,68,0,9.22,AE,1615084404
395,pokhara,28.2333,83.9833,71.92,22,0,3.13,NP,1615084405
396,benguela,-12.5763,13.4055,77.88,80,100,3.56,AO,1615084405
397,bengkulu,-3.8004,102.2655,74.68,83,100,6.15,ID,1615084405
398,igatpuri,19.7,73.55,77.16,23,0,1.41,IN,1615084259
399,pedro ii,-4.4247,-41.4586,68.88,96,100,2.04,BR,1615084405
400,constitucion,-35.3333,-72.4167,58.51,86,1,8.68,CL,1615084295
401,oksfjord,70.2396,22.3479,26.6,86,75,16.11,NO,1615084405
402,peleduy,59.6289,112.7406,19.53,95,100,8.77,RU,1615084405
403,east london,-33.0153,27.9116,70.54,76,83,18.45,ZA,1615084405
404,shar,49.5886,81.0453,17.89,94,89,5.75,KZ,1615084405
405,quelimane,-17.8786,36.8883,78.8,89,20,3.44,MZ,1615084406
406,mogochin,-33.65,115.3333,73,76,13,1.99,AU,1615084248
407,riyadh,24.6877,46.7219,57.2,26,0,5.75,SA,1615084155
408,bilibino,68.0546,166.4372,-15,84,100,7.96,RU,1615084336
409,bowen,-20.0167,148.2333,86,62,75,5.75,AU,1615084406
410,lolua,-33.65,115.3333,73,76,13,1.99,AU,1615084248
411,saleaula,-33.65,115.3333,73,76,13,1.99,AU,1615084248
412,baie-comeau,49.2168,-68.1489,15.8,62,75,11.5,CA,1615084206
413,tateyama,34.9833,139.8667,48.2,66,75,16.11,JP,1615084407
414,prince rupert,54.3161,-130.3201,42.8,61,90,8.05,CA,1615084407
415,saskylakh,71.9167,114.0833,-21.68,86,95,6.78,RU,1615084322
416,sao joao da barra,-21.6403,-41.0511,74.88,91,100,2.04,BR,1615084407
417,marrakesh,31.6315,-8.0083,51.8,87,40,1.14,MA,1615084155
418,laramie,41.3114,-105.5911,44.01,33,1,14.97,US,1615084280
419,coquimbo,-29.9533,-71.3436,62.6,88,0,3.44,CL,1615084396
420,ksenyevka,-33.65,115.3333,73,76,13,1.99,AU,1615084248
421,akureyri,65.6835,-18.0878,33.8,75,0,4.61,IS,1615084408
422,aktash,50.3,87.7333,9.18,86,27,5.26,RU,1615084408
423,dabhol,17.6,73.1667,77.54,57,0,2.48,IN,1615084408
424,san pedro del pinatar,37.8357,-0.791,57.99,100,75,17.27,ES,1615084408
425,saint-augustin,51.226,-58.6502,18.99,97,100,7.25,CA,1615084409
426,yaan,7.3833,8.5667,78.12,81,1,10.11,NG,1615084409
427,haines junction,60.7522,-137.5108,24.8,42,100,4.61,CA,1615084409
428,kpandu,6.9954,0.2931,79.12,83,100,6.53,GH,1615084372
429,hamilton,39.1834,-84.5333,37.4,55,1,0.85,US,1615084288
430,malinyi,-8.9333,36.1333,71.38,96,100,1.39,TZ,1615084410
431,gawler,-34.6,138.7333,84,34,87,5.99,AU,1615084208
432,cascais,38.6979,-9.4215,55.99,81,1,10.51,PT,1615084410
433,jiayuguan,39.8167,98.3,45.19,44,7,2.75,CN,1615084410
434,maniitsoq,65.4167,-52.9,28.63,91,100,7.49,GL,1615084410
435,tilichiki,60.4667,166.1,-13.38,84,100,14.97,RU,1615084392
436,sayat,38.7839,63.8803,41,93,0,4.61,TM,1615084411
437,bairnsdale,-37.8333,147.6167,75,50,96,3,AU,1615084411
438,nuuk,64.1835,-51.7216,32,80,90,8.05,GL,1615084411
439,aripuana,-9.1667,-60.6333,73.58,89,74,0.25,BR,1615084411
440,nakhon phanom,17.3333,104.4167,87.01,69,0,11.5,TH,1615084412
441,shieli,44.1667,66.75,34.83,85,93,5.46,KZ,1615084412
442,tidore,-33.65,115.3333,73,76,13,1.99,AU,1615084248
443,bikin,46.8161,134.26,14.45,91,97,6.44,RU,1615084332
444,kysyl-syr,63.8986,122.7617,-3.24,91,100,6.67,RU,1615084412
445,frankenthal,49.5372,8.355,30.99,80,32,2.91,DE,1615084413
446,dikson,73.5069,80.5464,-20.06,88,100,11.5,RU,1615084257
447,rolim de moura,-33.65,115.3333,73,76,13,1.99,AU,1615084248
448,biak,-0.9131,122.8766,83.26,68,8,2.53,ID,1615084413
449,teahupoo,-17.8333,-149.2667,86,70,75,6.91,PF,1615084413
450,anadyr,64.75,177.4833,-20,69,0,3.22,RU,1615084413
451,kaeo,-35.1,173.7833,75,53,24,15.01,NZ,1615084413
452,harindanga,22.0383,88.3214,75.2,94,37,4.83,IN,1615084414
453,balakhta,55.38,91.6,24.73,93,99,12.66,RU,1615084414
454,novyy urengoy,66.0833,76.6333,-6.97,91,93,4.41,RU,1615084414
455,gat,31.61,34.7642,51.01,87,0,3.87,IL,1615084415
456,tabou,4.423,-7.3528,77.58,86,100,5.53,CI,1615084415
457,nacogdoches,31.6002,-94.6335,48,71,1,5.03,US,1615084415
458,nome,64.5011,-165.4064,15.01,92,90,25.32,US,1615084415
459,roseburg,43.2165,-123.3417,50,53,40,3.6,US,1615084415
460,uruzgan,32.8333,66,46.78,51,0,2.01,AF,1615084415
461,magaria,12.9983,8.9099,71.4,16,8,10.76,NE,1615084416
462,coari,-4.085,-63.1414,74.48,97,100,2.21,BR,1615084416
463,cuiluan,47.72,128.648,16.47,88,96,11.97,CN,1615084416
464,asau,46.4333,26.4,24.01,66,0,5.37,RO,1615084380
465,buraydah,26.326,43.975,53.6,54,0,5.99,SA,1615084416
466,springbok,-29.6643,17.8865,56.44,52,0,1.86,ZA,1615084417
467,rudraprayag,30.2833,78.9833,70.18,23,62,5.46,IN,1615084417
468,san andres,12.5847,-81.7006,78.8,69,20,8.05,CO,1615084304
469,deer lake,49.1667,-57.4316,23,80,90,11.5,CA,1615084417
470,grindavik,63.8424,-22.4338,41,93,75,3.44,IS,1615084417
471,lakota,5.8528,-5.6883,72.52,95,13,2.98,CI,1615084418
472,kirakira,-10.4544,161.9205,83.55,75,100,6.78,SB,1615084418
473,jaboticabal,-21.2547,-48.3222,69.8,94,0,3.44,BR,1615084418
474,burica,-33.65,115.3333,73,76,13,1.99,AU,1615084248
475,cortez,37.3489,-108.5859,46.4,34,1,3.44,US,1615084418
476,butimanu,44.6833,25.9,32,100,63,3.2,RO,1615084419
477,ilulissat,69.2167,-51.1,21.2,86,90,4.61,GL,1615084419
478,huangmei,30.1924,116.025,45.14,83,99,7.87,CN,1615084419
479,kampot,10.6167,104.1833,84.2,61,40,8.05,KH,1615084419
480,roverud,60.2521,12.055,30.2,59,21,8.05,NO,1615084420
481,christchurch,-43.5333,172.6333,72,42,0,13.8,NZ,1615084132
482,baryshevo,54.9564,83.1822,14,79,0,11.18,RU,1615084420
483,labrea,-7.2586,-64.7981,75.22,88,48,1.68,BR,1615084420
484,jacareacanga,-6.2222,-57.7528,75.02,91,92,1.45,BR,1615084420
485,khatanga,71.9667,102.5,-17.64,87,67,11.3,RU,1615084291
486,namibe,-15.1961,12.1522,74.77,85,40,8.84,AO,1615084301
487,asyut,27.181,31.1837,50,66,0,9.22,EG,1615084420
488,shitanjing,39.2342,106.3439,41.83,63,69,10.69,CN,1615084420
489,marzuq,14.4,46.4667,53.83,45,20,2.06,YE,1615084421
490,lompoc,34.6391,-120.4579,53.6,76,20,11.5,US,1615084410
491,nemuro,43.3236,145.575,26.6,46,20,9.22,JP,1615084296
492,sungairaya,0.7,108.9,84.88,73,56,6.35,ID,1615084421
493,dwarka,22.2394,68.9678,77.43,76,0,11.56,IN,1615084421
494,kloulklubed,7.0419,134.2556,86,66,75,11.5,PW,1615084421
495,bolungarvik,-33.65,115.3333,73,76,13,1.99,AU,1615084248
496,san rafael,-34.6177,-68.3301,82.58,30,70,11.1,AR,1615084233
497,marcona,-33.65,115.3333,73,76,13,1.99,AU,1615084248
498,bereda,43.2686,-7.5406,42.01,96,75,3,ES,1615084421
499,puri,19.8,85.85,75.2,94,90,12.41,IN,1615084422
500,mehamn,71.0357,27.8492,30.2,74,75,21.85,NO,1615084422
501,chake chake,-5.2459,39.7666,75.36,84,39,5.84,TZ,1615084422
502,parana,-31.732,-60.5238,73,64,0,6.04,AR,1615084397
503,rosarito,32.3333,-117.0333,57.2,76,90,3.44,MX,1615084422
504,ganzhou,28.8184,115.4327,49.6,80,99,5.84,CN,1615084423
505,inzer,54.2167,57.5556,11.98,94,100,1.16,RU,1615084423
506,dunayivtsi,-33.65,115.3333,73,76,13,1.99,AU,1615084248
507,beringovskiy,63.05,179.3167,-11.76,90,100,9.26,RU,1615084423
508,akyab,20.15,92.9,76.37,64,27,4.23,MM,1615084423
509,mournies,35.4764,24.0092,51.8,100,0,0.85,GR,1615084423
510,launceston,-41.45,147.1667,64.99,59,90,12.66,AU,1615084250
511,sept-iles,50.2001,-66.3821,23,73,20,10.36,CA,1615084423
512,garissa,-0.4536,39.6401,73.76,78,34,9.6,KE,1615084424
513,kars,40.602,43.095,32,74,0,13.8,TR,1615084341
514,karratha,-20.7377,116.8463,89.24,50,0,10.11,AU,1615084424
515,kapustin yar-1,-33.65,115.3333,73,76,13,1.99,AU,1615084248
516,auki,-8.7676,160.7034,83.53,79,100,4.16,SB,1615084425
517,avera,33.194,-82.5271,42.8,75,1,4.81,US,1615084425
518,salta,-24.7859,-65.4117,68,88,0,3.44,AR,1615084364
519,merauke,-8.4667,140.3333,86.04,65,5,9.8,ID,1615084425
520,kaz,52.9113,87.3105,27.19,94,100,9.46,RU,1615084426
521,wukari,7.85,9.7833,75.78,61,38,6.96,NG,1615084426
522,thoen,17.6129,99.2161,97.29,18,0,0.74,TH,1615084426
523,canto do buriti,-8.11,-42.9444,73.11,90,0,3.69,BR,1615084427
524,senanga,-16.1167,23.2667,61.07,76,0,3.91,ZM,1615084427
525,samarai,-10.6167,150.6667,81.84,75,64,9.04,PG,1615084427
526,iberia,29.9502,-91.7507,55.4,44,1,11.5,US,1615084427
527,london,51.5085,-0.1257,34,93,75,1.14,GB,1615083604
528,mareeba,-17,145.4333,89.01,74,40,9.22,AU,1615084428
529,izhma,65.0083,53.9113,-9.45,90,100,1.74,RU,1615084428
530,esmeralda,21.8525,-78.1169,73.4,83,20,5.75,CU,1615084428
531,puerto leguizamo,-0.1934,-74.7819,71.22,97,89,0.96,CO,1615084428
532,camopi,3.1655,-52.3158,72.48,98,95,1.66,GF,1615084429
533,caraballeda,10.6112,-66.8522,77,73,40,3.44,VE,1615084429
534,yendi,9.4427,-0.0099,83.62,60,100,4.79,GH,1615084429
535,diamantino,-14.4086,-56.4461,73.96,86,100,0.69,BR,1615084429
536,gorno-chuyskiy,-33.65,115.3333,73,76,13,1.99,AU,1615084248
537,sentyabrskiy,-33.65,115.3333,73,76,13,1.99,AU,1615084248
538,melipilla,-33.7,-71.2167,68,94,90,2.3,CL,1615084414
539,aasiaat,68.7098,-52.8699,8.98,95,100,2.62,GL,1615084430
540,asfi,32.2994,-9.2372,55.71,84,0,3,MA,1615084301
541,berlevag,70.8578,29.0864,30.2,74,75,21.85,NO,1615084430
542,tat,47.7415,18.6481,30.99,79,0,2.3,HU,1615084430
543,kuruman,-27.4524,23.4325,61,43,0,11.86,ZA,1615084431
544,stephenville,32.2207,-98.2023,51.8,54,1,6.91,US,1615084431
545,rudbar,30.15,62.6,52.2,51,0,7.4,AF,1615084271
546,bathsheba,13.2167,-59.5167,78.8,69,20,21.85,BB,1615084311
547,odesa,46.4775,30.7326,23,74,0,2.24,UA,1615084431
548,stillwater,36.1156,-97.0584,55.4,44,1,8.05,US,1615084391
549,high level,58.5169,-117.136,32,69,75,2.3,CA,1615084432
550,oranjemund,-28.55,16.4333,61.65,89,0,8.99,NA,1615084432
551,teguldet,57.3064,88.1667,17.49,95,84,14.18,RU,1615084432
552,shubarkuduk,49.1447,56.4872,34.09,90,100,20.4,KZ,1615084432
553,andenes,69.3143,16.1194,32,59,20,26.46,NO,1615084293
554,amahai,-3.3333,128.9167,87.1,58,36,1.5,ID,1615084433
555,gamba,-2.65,10,75.6,81,99,0.6,GA,1615084433
556,marawi,7.9986,124.2928,80.01,75,33,5.01,PH,1615084433
557,visby,57.6409,18.296,35.6,55,90,20.71,SE,1615084150
558,port-gentil,-0.7193,8.7815,80.82,85,99,15.21,GA,1615084433
559,trelew,-43.249,-65.3051,80.42,29,61,13.69,AR,1615084433
560,daru,-9.0763,143.2092,88.61,55,88,2.95,PG,1615084433
561,mayya,61.7333,130.2811,-27.4,75,84,4.47,RU,1615084434
562,shrewsbury,52.7101,-2.7521,30,93,20,3.33,GB,1615084411
563,gedo,9.0167,37.45,54.27,47,100,3.13,ET,1615084434
564,chernogorsk,53.8236,91.2842,30.2,59,0,11.18,RU,1615084434
565,casa nova,-9.4167,-41.1333,81.03,59,29,4,BR,1615084434
566,bima,-8.4667,118.7167,88.72,63,26,1.21,ID,1615084435
567,senador jose porfirio,-2.5908,-51.9542,75.18,93,100,2.3,BR,1615084435
568,walvis bay,-22.9575,14.5053,64.4,77,0,4.61,NA,1615084435
569,bridgewater,44.3835,-64.5155,30.2,69,5,14.97,CA,1615084435
570,zemio,5.0314,25.1361,70.72,25,21,2.95,CF,1615084435
571,omboue,-1.5746,9.2618,77.43,76,98,3.76,GA,1615084436
572,puerto ayacucho,5.6639,-67.6236,77.47,81,95,2.82,VE,1615084436
573,nara,34.6851,135.8049,50,46,75,5.75,JP,1615084436
574,kizukuri,40.8061,140.3861,37,69,75,13.8,JP,1615084436
575,moerai,-22.4333,-151.3333,77.2,85,98,16.67,PF,1615084436
576,siculeni,46.4167,25.75,24.01,66,0,3.94,RO,1615084437
577,izoplit,56.6256,36.222,24.37,97,100,16.53,RU,1615084437
578,kununurra,-15.7667,128.7333,91.4,55,68,12.66,AU,1615084437
579,youkounkoun,12.5333,-13.1333,74.61,55,10,7.38,GN,1615084437
580,ostrovnoy,68.0531,39.5131,4.75,93,99,13.65,RU,1615084437
581,rio de janeiro,-22.9028,-43.2075,71.6,100,90,2.3,BR,1615084245
582,acapulco,16.8634,-99.8901,78.8,78,1,3.44,MX,1615084271
583,santa isabel do rio negro,-0.4139,-65.0192,75.11,97,100,1.01,BR,1615084438
584,pacific grove,36.6177,-121.9166,51.01,83,1,4,US,1615084367
585,hambantota,6.1241,81.1185,77,100,0,3.44,LK,1615084438
586,antalaha,-14.9003,50.2788,76.17,70,52,3.65,MG,1615084438
587,port moresby,-9.4431,147.1797,87.8,66,40,11.5,PG,1615084438
588,sujawal,-33.65,115.3333,73,76,13,1.99,AU,1615084248
589,saqqez,36.2499,46.2735,36.16,80,100,4.47,IR,1615084438
590,concepcion,-36.827,-73.0498,57.2,94,0,5.75,CL,1615084242
591,lichinga,-13.3128,35.2406,64.4,100,75,12.66,MZ,1615084439
592,mahajanga,-15.7167,46.3167,75.2,88,20,3.44,MG,1615084439
593,cabedelo,-6.9811,-34.8339,77,94,20,9.82,BR,1615084355
594,bartlesville,36.7473,-95.9808,53.01,61,1,8.63,US,1615084439
595,santa rosa,14.3122,121.1114,87.01,62,20,8.05,PH,1615084439
596,sistranda,63.7256,8.834,32,55,40,24.16,NO,1615084439
597,santa fe,-31.6333,-60.7,73,64,0,5.79,AR,1615084364
598,carutapera,-1.195,-46.02,77.23,87,94,5.39,BR,1615084439
599,huilong,31.8111,121.655,48,99,100,6.64,CN,1615084439
600,los llanos de aridane,28.6585,-17.9182,64.4,63,20,17.27,ES,1615084439
601,comodoro rivadavia,-45.8667,-67.5,73.4,46,0,12.66,AR,1615084440
602,tanabe,33.7333,135.3667,53.6,58,75,8.05,JP,1615084440
603,azimur,-33.65,115.3333,73,76,13,1.99,AU,1615084248
604,cumanayagua,22.1494,-80.2022,75.2,73,18,5.75,CU,1615084440
605,zaltan,32.947,11.8665,58.1,93,100,6.85,LY,1615084440
606,tazmalt,36.3868,4.3989,54.9,66,78,4.63,DZ,1615084440
607,galgani,-33.65,115.3333,73,76,13,1.99,AU,1615084248
608,kieta,-6.2167,155.6333,81.09,78,100,4.27,PG,1615084440
